{
    "homes": [
        {
            "id": 299,
            "name": "Almanac Beer Company",
            "listing_by_Agent": true,
            "status":"For Sale",
            "brewery_type": "micro",
            "no_bedroom":"4",
            "no_bathroom":"4",
            "no_sqft":"12800",
            "street": "651B W Tower Ave",
            "address_2": null,
            "address_3": null,
            "city": "New Haven",
            "state": "Enugu",
            "county_province": null,
            "postal_code": "94501-5047",
            "country": "Nigeria",
            "longitude": "-122.306283180899",
            "latitude": "37.7834497667258",
            "phone": "4159326531",
            "website_url": "http://almanacbeer.com",
            "updated_at": "2018-08-23T23:24:11.758Z",
            "created_at": "2018-08-23T23:24:11.758Z"
        },
        {
            "id":9180,
            "obdb_id":"boulder-beer-co-boulder",
            "listing_by_Agent": true,
            "status":"For Sale",
            "name":"Boulder Beer Co",
            "brewery_type":"regional",
            "no_bedroom":"3",
            "no_bathroom":"3",
            "no_sqft":"41000",
            "street":"2880 Wilderness Pl",
            "address_2":null,
            "address_3":null,
            "city":"Akwa",
            "state":"Anambra",
            "county_province":null,
            "postal_code":"80301-5401",
            "country":"Nigeria",
            "longitude":"-105.2480158",
            "latitude":"40.026439",
            "phone":null,
            "website_url":null,
            "updated_at":"2018-08-24T00:00:00.000Z",
            "created_at":"2018-07-24T00:00:00.000Z"
        },
        {
            "id":975474,            
            "status":"For Sale",
            "listing_by_Agent": true,
            "obdb_id":"clermont-brewing-company-clermont",
            "name":"Clermont Brewing Company",
            "brewery_type":"planning",
            "no_bedroom":"2",
            "no_bathroom":"3",
            "no_sqft":"1200",
            "street":"Abakpa 82 Division",
            "address_2":null,
            "address_3":null,
            "city":"Abakpa",
            "state":"Enugu",
            "county_province":null,
            "postal_code":"34711-2108",
            "country":"Nigeria",
            "longitude": "-121.306283180899",
            "latitude": "38.7834497667258",
            "phone":null,
            "website_url":null,
            "updated_at":"2018-08-11T00:00:00.000Z",
            "created_at":"2018-07-24T00:00:00.000Z"
            },
        {
            "id":1018686,            
            "status":"For Sale",
            "listing_by_Agent": true,
            "obdb_id":"dimensional-brewing-co-dubuque",
            "name":"Dimensional Brewing Co.",
            "brewery_type":"planning",
            "no_bedroom":"5",
            "no_bathroom":"6",
            "no_sqft":"173000",
            "street":"16 Thinker's Corner, Old Abakaliki Road Opposite Omnipotent",
            "address_2":null,
            "address_3":null,
            "city":"Thinker's Corner",
            "state":"Enugu",
            "county_province":null,
            "postal_code":"52001",
            "country":"Nigeria",
            "longitude":"-115.202929",
            "latitude":"42.618516",
            "phone":null,
            "website_url":"http://www.dimensionalbrewing.com","updated_at":"2018-08-11T00:00:00.000Z",
            "created_at":"2018-07-24T00:00:00.000Z"
        },
        {
            "id":1021717,            
            "status":"For Sale",
            "listing_by_Agent": true,
            "obdb_id":"dixie-brewing-co-inc-new-orleans",
            "name":"Dixie Brewing Co Inc.",
            "brewery_type":"contract",
            "no_bedroom":"6",
            "no_bathroom":"4",
            "no_sqft":"11000",
            "street":"6221 S Claiborne Ave Ste 101",
            "address_2":null,
            "address_3":null,
            "city":"Umuahia",
            "state":"Abia",
            "county_province":null,
            "postal_code":"70125-4191",
            "country":"Nigeria",
            "longitude":null,
            "latitude":null,
            "phone":"5048228711",
            "website_url":null,
            "updated_at":"2018-08-11T00:00:00.000Z",
            "created_at":"2018-07-24T00:00:00.000Z"
        },
        {
            "id":1103939,
            "listing_by_Agent": true,
            "status":"For Sale",
            "obdb_id":"goose-island-philadelphia-philadelphia",
            "name":"Goose Island Philadelphia",
            "brewery_type":"brewpub",
            "no_bedroom":"2",
            "no_bathroom":"3",
            "no_sqft":"4100",
            "street":"1002 Canal St",
            "address_2":null,
            "address_3":null,
            "city":"Abakiliki",
            "state":"Ebonyi",
            "county_province":null,
            "postal_code":"19123",
            "country":"Nigeria",
            "longitude":"-75.13506341",
            "latitude":"39.9648491",
            "phone":null,
            "website_url":null,
            "updated_at":"2018-08-24T00:00:00.000Z",
            "created_at":"2018-07-24T00:00:00.000Z"
        },
        {
            "id":1176767,
            "listing_by_Agent": true,
            "status":"For Sale",
            "obdb_id":"ironbark-brewery-jackson",
            "name":"Ironbark Brewery",
            "brewery_type":"micro",
            "no_bedroom":"7",
            "no_bathroom":"6",
            "no_sqft":"141000",
            "street":"2610 Kibby Rd",
            "address_2":null,
            "address_3":null,
            "city":"Afikpo North",
            "state":"Ebonyi",
            "county_province":null,
            "postal_code":"49203-4908",
            "country":"Nigeria",
            "longitude":"-84.43762976",
            "latitude":"42.2188971",
            "phone":"5177487988",
            "website_url":null,
            "updated_at":"2018-08-24T00:00:00.000Z",
            "created_at":"2018-07-24T00:00:00.000Z"
        },
        {
            "id":8034111,            
            "status":"For Sale",
            "listing_by_Agent": true,
            "obdb_id":"10-56-brewing-company-knox",
            "name":"10-56 Brewing Company",
            "brewery_type":"micro",
            "no_bedroom":"4",
            "no_bathroom":"4",
            "no_sqft":"4000",
            "street":"400 Brown Cir",
            "address_2":null,
            "address_3":null,
            "city":"Owerre",
            "state":"Imo",
            "county_province":null,
            "postal_code":"46534",
            "country":"Nigeria",
            "longitude":"-86.627954",
            "latitude":"41.289715",
            "phone":"6308165790",
            "website_url":null,
            "updated_at":"2018-08-24T00:00:00.000Z",
            "created_at":"2018-07-24T00:00:00.000Z"
        },
        {
            "id":8037004,            
            "status":"For Sale",
            "listing_by_Agent": true,
            "obdb_id":"10-barrel-brewing-co-bend-pub-bend",
            "name":"10 Barrel Brewing Co - Bend Pub",
            "brewery_type":"large",
            "no_bedroom":"3",
            "no_bathroom":"3",
            "no_sqft":"4100",
            "street":"62950 NE 18th St",
            "address_2":null,
            "address_3":null,
            "city":"Aba",
            "state":"Abia",
            "county_province":null,
            "postal_code":"97701",
            "country":"Nigeria",
            "longitude":"-121.2809536",
            "latitude":"44.0912109",
            "phone":"5415851007",
            "website_url":null,
            "updated_at":"2018-08-24T00:00:00.000Z",
            "created_at":"2018-07-24T00:00:00.000Z"
        },
        {
            "id":14347,            
            "status":"For Sale",
            "listing_by_Agent": false,
            "obdb_id":"ska-brewing-durango",
            "name":"SKA Brewing",
            "brewery_type":"regional",
            "no_bedroom":"3",
            "no_bathroom":"4",
            "no_sqft":"1200",
            "street":"225 Girard, Bodo Park",
            "address_2":null,
            "address_3":null,
            "city":"Akwa",
            "state":"Anambra",
            "county_province":null,
            "postal_code":"81303-6827",
            "country":"Nigeria",
            "longitude":null,
            "latitude":null,
            "phone":null,
            "website_url":null,
            "updated_at":"2018-08-11T00:00:00.000Z",
            "created_at":"2018-07-24T00:00:00.000Z"
        },
        {
            "id":803803,            
            "status":"For Sale",
            "listing_by_Agent": false,
            "obdb_id":"10-barrel-brewing-co-boise-boise",
            "name":"10 Barrel Brewing Co - Boise",
            "brewery_type":"large",
            "no_bedroom":"4",
            "no_bathroom":"5",
            "no_sqft":"21000",
            "street":"826 W Bannock St",
            "address_2":null,
            "address_3":null,
            "city":"Nsukka",
            "state":"Enugu",
            "county_province":null,
            "postal_code":"83702-5857",
            "country":"Nigeria",
            "longitude":"-116.202929",
            "latitude":"43.618516",
            "phone":"2083445870",
            "website_url":"http://www.10barrel.com",
            "updated_at":"2020-10-11T00:00:00.000Z",
            "created_at":"2018-07-24T00:00:00.000Z"
        },
        {
            "id":8039,            
            "status":"For Sale",
            "listing_by_Agent": false,
            "obdb_id":"10-barrel-brewing-co-denver-denver",
            "name":"10 Barrel Brewing Co - Denver",
            "brewery_type":"large",
            "no_bedroom":"3",
            "no_bathroom":"3",
            "no_sqft":"12000",
            "street":"2620 Walnut St",
            "address_2":null,
            "address_3":null,
            "city":"Akwa South",
            "state":"Anambra",
            "county_province":null,
            "postal_code":"80205-2231",
            "country":"Nigeria",
            "longitude":"-104.9853655",
            "latitude":"39.7592508",
            "phone":"7205738992",
            "website_url":null,
            "updated_at":"2018-08-24T00:00:00.000Z",
            "created_at":"2018-07-24T00:00:00.000Z"
        },
        {
            "id":8040,            
            "status":"For Sale",
            "listing_by_Agent": false,
            "obdb_id":"10-barrel-brewing-co-portland",
            "name":"10 Barrel Brewing Co",
            "brewery_type":"large",
            "no_bedroom":"3",
            "no_bathroom":"3",
            "no_sqft":"4400",
            "street":"1411 NW Flanders St",
            "address_2":null,
            "address_3":null,
            "city":"Umuahia",
            "state":"Abia",
            "county_province":null,
            "postal_code":"97209-2620",
            "country":"Nigeria",
            "longitude":"-122.6855056",
            "latitude":"45.5259786",
            "phone":"5032241700",
            "website_url":"http://www.10barrel.com",
            "updated_at":"2018-08-24T00:00:00.000Z",
            "created_at":"2018-07-24T00:00:00.000Z"
        },
        {
            "id":8041,            
            "status":"For Sale",
            "listing_by_Agent": false,
            "obdb_id":"10-barrel-brewing-co-san-diego",
            "name":"10 Barrel Brewing Co",
            "brewery_type":"large",
            "no_bedroom":"3",
            "no_bathroom":"3",
            "no_sqft":"4100",
            "street":"1501 E St",
            "address_2":null,
            "address_3":null,
            "city":"Owerre",
            "state":"Imo",
            "county_province":null,
            "postal_code":"92101-6618",
            "country":"Nigeria",
            "longitude":"-117.129593",
            "latitude":"32.714813",
            "phone":"6195782311",
            "website_url":"http://10barrel.com",
            "updated_at":"2018-08-23T00:00:00.000Z",
            "created_at":"2018-07-24T00:00:00.000Z"
        },
        {
            "id":800142,            
            "status":"For Sale",
            "listing_by_Agent": false,
            "obdb_id":"10-torr-distilling-and-brewing-reno",
            "name":"10 Torr Distilling and Brewing",
            "brewery_type":"micro",
            "no_bedroom":"5",
            "no_bathroom":"6",
            "no_sqft":"12300",
            "street":"490 Mill St",
            "address_2":null,
            "address_3":null,
            "city":"Reno",
            "state":"Imo",
            "county_province":null,
            "postal_code":"89502",
            "country":"Nigeria",
            "longitude":"-119.7732015",
            "latitude":"39.5171702",
            "phone":"7755307014",
            "website_url":"http://www.10torr.com",
            "updated_at":"2018-08-24T00:00:00.000Z",
            "created_at":"2018-07-24T00:00:00.000Z"
        },
        {
            "id":804310,            
            "status":"For Sale",
            "listing_by_Agent": false,
            "obdb_id":"10-torr-distilling-and-brewing-reno",
            "name":"10 Torr Distilling and Brewing",
            "brewery_type":"micro",
            "no_bedroom":"2",
            "no_bathroom":"1",
            "no_sqft":"900",
            "street":"490 Mill St",
            "address_2":null,
            "address_3":null,
            "city":"Reno",
            "state":"Imo",
            "county_province":null,
            "postal_code":"89502",
            "country":"Nigeria",
            "longitude":"-119.7732015",
            "latitude":"39.5171702",
            "phone":"7755307014",
            "website_url":"http://www.10torr.com",
            "updated_at":"2018-08-24T00:00:00.000Z",
            "created_at":"2018-07-24T00:00:00.000Z"
        },
        {
            "id":8046005,            
            "status":"For Sale",
            "listing_by_Agent": false,
            "obdb_id":"10-torr-distilling-and-brewing-reno",
            "name":"10 Torr Distilling and Brewing",
            "brewery_type":"micro",
            "no_bedroom":"2",
            "no_bathroom":"1",
            "no_sqft":"1900",
            "street":"590 Mill St",
            "address_2":null,
            "address_3":null,
            "city":"Independance Layout",
            "state":"Enugu",
            "county_province":null,
            "postal_code":"89502",
            "country":"Nigeria",
            "longitude":"-119.7732015",
            "latitude":"39.5171702",
            "phone":"7755307014",
            "website_url":"http://www.10torr.com",
            "updated_at":"2018-08-24T00:00:00.000Z",
            "created_at":"2018-07-24T00:00:00.000Z"
        },
        {
            "id": 2021,
            "status":"For Sale",
            "listing_by_Agent": false,
            "name": "Almanac Beer Company",
            "brewery_type": "micro",
            "no_bedroom":"4",
            "no_bathroom":"4",
            "no_sqft":"12800",
            "street": "651B W Tower Ave",
            "address_2": null,
            "address_3": null,
            "city": "New Haven",
            "state": "Enugu",
            "county_province": null,
            "postal_code": "94501-5047",
            "country": "Nigeria",
            "longitude": "-123.306283180899",
            "latitude": "36.7834497667258",
            "phone": "4159326531",
            "website_url": "http://almanacbeer.com",
            "updated_at": "2018-08-23T23:24:11.758Z",
            "created_at": "2018-08-23T23:24:11.758Z"
        },
        {
            "id": 29909,
            "name": "Almanac Beer Company",
            "listing_by_Agent": true,
            "status":"For Sale",
            "brewery_type": "micro",
            "no_bedroom":"4",
            "no_bathroom":"4",
            "no_sqft":"12800",
            "street": "651B W Tower Ave",
            "address_2": null,
            "address_3": null,
            "city": "New Haven",
            "state": "Enugu",
            "county_province": null,
            "postal_code": "94501-5047",
            "country": "Nigeria",
            "longitude": "-122.306283180899",
            "latitude": "37.7834497667258",
            "phone": "4159326531",
            "website_url": "http://almanacbeer.com",
            "updated_at": "2018-08-23T23:24:11.758Z",
            "created_at": "2018-08-23T23:24:11.758Z"
        },
        {
            "id":918080,
            "obdb_id":"boulder-beer-co-boulder",
            "listing_by_Agent": true,
            "status":"For Sale",
            "name":"Boulder Beer Co",
            "brewery_type":"regional",
            "no_bedroom":"3",
            "no_bathroom":"3",
            "no_sqft":"41000",
            "street":"2880 Wilderness Pl",
            "address_2":null,
            "address_3":null,
            "city":"Akwa",
            "state":"Anambra",
            "county_province":null,
            "postal_code":"80301-5401",
            "country":"Nigeria",
            "longitude":"-105.2480158",
            "latitude":"40.026439",
            "phone":null,
            "website_url":null,
            "updated_at":"2018-08-24T00:00:00.000Z",
            "created_at":"2018-07-24T00:00:00.000Z"
        },
        {
            "id":9754,            
            "status":"For Sale",
            "listing_by_Agent": true,
            "obdb_id":"clermont-brewing-company-clermont",
            "name":"Clermont Brewing Company",
            "brewery_type":"planning",
            "no_bedroom":"2",
            "no_bathroom":"3",
            "no_sqft":"1200",
            "street":"Abakpa 82 Division",
            "address_2":null,
            "address_3":null,
            "city":"Abakpa",
            "state":"Enugu",
            "county_province":null,
            "postal_code":"34711-2108",
            "country":"Nigeria",
            "longitude": "-121.306283180899",
            "latitude": "38.7834497667258",
            "phone":null,
            "website_url":null,
            "updated_at":"2018-08-11T00:00:00.000Z",
            "created_at":"2018-07-24T00:00:00.000Z"
            },
        {
            "id":1018687,            
            "status":"For Sale",
            "listing_by_Agent": true,
            "obdb_id":"dimensional-brewing-co-dubuque",
            "name":"Dimensional Brewing Co.",
            "brewery_type":"planning",
            "no_bedroom":"5",
            "no_bathroom":"6",
            "no_sqft":"173000",
            "street":"16 Thinker's Corner, Old Abakaliki Road Opposite Omnipotent",
            "address_2":null,
            "address_3":null,
            "city":"Thinker's Corner",
            "state":"Enugu",
            "county_province":null,
            "postal_code":"52001",
            "country":"Nigeria",
            "longitude":"-115.202929",
            "latitude":"42.618516",
            "phone":null,
            "website_url":"http://www.dimensionalbrewing.com","updated_at":"2018-08-11T00:00:00.000Z",
            "created_at":"2018-07-24T00:00:00.000Z"
        },
        {
            "id":1021718,            
            "status":"For Sale",
            "listing_by_Agent": true,
            "obdb_id":"dixie-brewing-co-inc-new-orleans",
            "name":"Dixie Brewing Co Inc.",
            "brewery_type":"contract",
            "no_bedroom":"6",
            "no_bathroom":"4",
            "no_sqft":"11000",
            "street":"6221 S Claiborne Ave Ste 101",
            "address_2":null,
            "address_3":null,
            "city":"Umuahia",
            "state":"Abia",
            "county_province":null,
            "postal_code":"70125-4191",
            "country":"Nigeria",
            "longitude":null,
            "latitude":null,
            "phone":"5048228711",
            "website_url":null,
            "updated_at":"2018-08-11T00:00:00.000Z",
            "created_at":"2018-07-24T00:00:00.000Z"
        },
        {
            "id":1103901,
            "listing_by_Agent": true,
            "status":"For Sale",
            "obdb_id":"goose-island-philadelphia-philadelphia",
            "name":"Goose Island Philadelphia",
            "brewery_type":"brewpub",
            "no_bedroom":"2",
            "no_bathroom":"3",
            "no_sqft":"4100",
            "street":"1002 Canal St",
            "address_2":null,
            "address_3":null,
            "city":"Abakiliki",
            "state":"Ebonyi",
            "county_province":null,
            "postal_code":"19123",
            "country":"Nigeria",
            "longitude":"-75.13506341",
            "latitude":"39.9648491",
            "phone":null,
            "website_url":null,
            "updated_at":"2018-08-24T00:00:00.000Z",
            "created_at":"2018-07-24T00:00:00.000Z"
        },
        {
            "id":1176768,
            "listing_by_Agent": true,
            "status":"For Sale",
            "obdb_id":"ironbark-brewery-jackson",
            "name":"Ironbark Brewery",
            "brewery_type":"micro",
            "no_bedroom":"7",
            "no_bathroom":"6",
            "no_sqft":"141000",
            "street":"2610 Kibby Rd",
            "address_2":null,
            "address_3":null,
            "city":"Afikpo North",
            "state":"Ebonyi",
            "county_province":null,
            "postal_code":"49203-4908",
            "country":"Nigeria",
            "longitude":"-84.43762976",
            "latitude":"42.2188971",
            "phone":"5177487988",
            "website_url":null,
            "updated_at":"2018-08-24T00:00:00.000Z",
            "created_at":"2018-07-24T00:00:00.000Z"
        },
        {
            "id":8034112,            
            "status":"For Sale",
            "listing_by_Agent": true,
            "obdb_id":"10-56-brewing-company-knox",
            "name":"10-56 Brewing Company",
            "brewery_type":"micro",
            "no_bedroom":"4",
            "no_bathroom":"4",
            "no_sqft":"4000",
            "street":"400 Brown Cir",
            "address_2":null,
            "address_3":null,
            "city":"Owerre",
            "state":"Imo",
            "county_province":null,
            "postal_code":"46534",
            "country":"Nigeria",
            "longitude":"-86.627954",
            "latitude":"41.289715",
            "phone":"6308165790",
            "website_url":null,
            "updated_at":"2018-08-24T00:00:00.000Z",
            "created_at":"2018-07-24T00:00:00.000Z"
        },
        {
            "id":803701,            
            "status":"For Sale",
            "listing_by_Agent": true,
            "obdb_id":"10-barrel-brewing-co-bend-pub-bend",
            "name":"10 Barrel Brewing Co - Bend Pub",
            "brewery_type":"large",
            "no_bedroom":"3",
            "no_bathroom":"3",
            "no_sqft":"4100",
            "street":"62950 NE 18th St",
            "address_2":null,
            "address_3":null,
            "city":"Aba",
            "state":"Abia",
            "county_province":null,
            "postal_code":"97701",
            "country":"Nigeria",
            "longitude":"-121.2809536",
            "latitude":"44.0912109",
            "phone":"5415851007",
            "website_url":null,
            "updated_at":"2018-08-24T00:00:00.000Z",
            "created_at":"2018-07-24T00:00:00.000Z"
        },
        {
            "id":1434712,            
            "status":"For Sale",
            "listing_by_Agent": false,
            "obdb_id":"ska-brewing-durango",
            "name":"SKA Brewing",
            "brewery_type":"regional",
            "no_bedroom":"3",
            "no_bathroom":"4",
            "no_sqft":"1200",
            "street":"225 Girard, Bodo Park",
            "address_2":null,
            "address_3":null,
            "city":"Akwa",
            "state":"Anambra",
            "county_province":null,
            "postal_code":"81303-6827",
            "country":"Nigeria",
            "longitude":null,
            "latitude":null,
            "phone":null,
            "website_url":null,
            "updated_at":"2018-08-11T00:00:00.000Z",
            "created_at":"2018-07-24T00:00:00.000Z"
        },
        {
            "id":803801,            
            "status":"For Sale",
            "listing_by_Agent": false,
            "obdb_id":"10-barrel-brewing-co-boise-boise",
            "name":"10 Barrel Brewing Co - Boise",
            "brewery_type":"large",
            "no_bedroom":"4",
            "no_bathroom":"5",
            "no_sqft":"21000",
            "street":"826 W Bannock St",
            "address_2":null,
            "address_3":null,
            "city":"Nsukka",
            "state":"Enugu",
            "county_province":null,
            "postal_code":"83702-5857",
            "country":"Nigeria",
            "longitude":"-116.202929",
            "latitude":"43.618516",
            "phone":"2083445870",
            "website_url":"http://www.10barrel.com",
            "updated_at":"2020-10-11T00:00:00.000Z",
            "created_at":"2018-07-24T00:00:00.000Z"
        },
        {
            "id":80391,            
            "status":"For Sale",
            "listing_by_Agent": false,
            "obdb_id":"10-barrel-brewing-co-denver-denver",
            "name":"10 Barrel Brewing Co - Denver",
            "brewery_type":"large",
            "no_bedroom":"3",
            "no_bathroom":"3",
            "no_sqft":"12000",
            "street":"2620 Walnut St",
            "address_2":null,
            "address_3":null,
            "city":"Akwa South",
            "state":"Anambra",
            "county_province":null,
            "postal_code":"80205-2231",
            "country":"Nigeria",
            "longitude":"-104.9853655",
            "latitude":"39.7592508",
            "phone":"7205738992",
            "website_url":null,
            "updated_at":"2018-08-24T00:00:00.000Z",
            "created_at":"2018-07-24T00:00:00.000Z"
        },
        {
            "id":80400,            
            "status":"For Sale",
            "listing_by_Agent": false,
            "obdb_id":"10-barrel-brewing-co-portland",
            "name":"10 Barrel Brewing Co",
            "brewery_type":"large",
            "no_bedroom":"3",
            "no_bathroom":"3",
            "no_sqft":"4400",
            "street":"1411 NW Flanders St",
            "address_2":null,
            "address_3":null,
            "city":"Umuahia",
            "state":"Abia",
            "county_province":null,
            "postal_code":"97209-2620",
            "country":"Nigeria",
            "longitude":"-122.6855056",
            "latitude":"45.5259786",
            "phone":"5032241700",
            "website_url":"http://www.10barrel.com",
            "updated_at":"2018-08-24T00:00:00.000Z",
            "created_at":"2018-07-24T00:00:00.000Z"
        },
        {
            "id":804722,            
            "status":"For Sale",
            "listing_by_Agent": false,
            "obdb_id":"10-barrel-brewing-co-san-diego",
            "name":"10 Barrel Brewing Co",
            "brewery_type":"large",
            "no_bedroom":"3",
            "no_bathroom":"3",
            "no_sqft":"4100",
            "street":"1501 E St",
            "address_2":null,
            "address_3":null,
            "city":"Owerre",
            "state":"Imo",
            "county_province":null,
            "postal_code":"92101-6618",
            "country":"Nigeria",
            "longitude":"-117.129593",
            "latitude":"32.714813",
            "phone":"6195782311",
            "website_url":"http://10barrel.com",
            "updated_at":"2018-08-23T00:00:00.000Z",
            "created_at":"2018-07-24T00:00:00.000Z"
        },
        {
            "id":8042,            
            "status":"For Sale",
            "listing_by_Agent": false,
            "obdb_id":"10-torr-distilling-and-brewing-reno",
            "name":"10 Torr Distilling and Brewing",
            "brewery_type":"micro",
            "no_bedroom":"5",
            "no_bathroom":"6",
            "no_sqft":"12300",
            "street":"490 Mill St",
            "address_2":null,
            "address_3":null,
            "city":"Reno",
            "state":"Imo",
            "county_province":null,
            "postal_code":"89502",
            "country":"Nigeria",
            "longitude":"-119.7732015",
            "latitude":"39.5171702",
            "phone":"7755307014",
            "website_url":"http://www.10torr.com",
            "updated_at":"2018-08-24T00:00:00.000Z",
            "created_at":"2018-07-24T00:00:00.000Z"
        },
        {
            "id":8043,            
            "status":"For Sale",
            "listing_by_Agent": false,
            "obdb_id":"10-torr-distilling-and-brewing-reno",
            "name":"10 Torr Distilling and Brewing",
            "brewery_type":"micro",
            "no_bedroom":"2",
            "no_bathroom":"1",
            "no_sqft":"900",
            "street":"490 Mill St",
            "address_2":null,
            "address_3":null,
            "city":"Reno",
            "state":"Imo",
            "county_province":null,
            "postal_code":"89502",
            "country":"Nigeria",
            "longitude":"-119.7732015",
            "latitude":"39.5171702",
            "phone":"7755307014",
            "website_url":"http://www.10torr.com",
            "updated_at":"2018-08-24T00:00:00.000Z",
            "created_at":"2018-07-24T00:00:00.000Z"
        },
        {
            "id":804675,            
            "status":"For Sale",
            "listing_by_Agent": false,
            "obdb_id":"10-torr-distilling-and-brewing-reno",
            "name":"10 Torr Distilling and Brewing",
            "brewery_type":"micro",
            "no_bedroom":"2",
            "no_bathroom":"1",
            "no_sqft":"1900",
            "street":"590 Mill St",
            "address_2":null,
            "address_3":null,
            "city":"Independance Layout",
            "state":"Enugu",
            "county_province":null,
            "postal_code":"89502",
            "country":"Nigeria",
            "longitude":"-119.7732015",
            "latitude":"39.5171702",
            "phone":"7755307014",
            "website_url":"http://www.10torr.com",
            "updated_at":"2018-08-24T00:00:00.000Z",
            "created_at":"2018-07-24T00:00:00.000Z"
        },
        {
            "id": 29921,
            "status":"For Sale",
            "listing_by_Agent": false,
            "name": "Almanac Beer Company",
            "brewery_type": "micro",
            "no_bedroom":"4",
            "no_bathroom":"4",
            "no_sqft":"12800",
            "street": "651B W Tower Ave",
            "address_2": null,
            "address_3": null,
            "city": "New Haven",
            "state": "Enugu",
            "county_province": null,
            "postal_code": "94501-5047",
            "country": "Nigeria",
            "longitude": "-123.306283180899",
            "latitude": "36.7834497667258",
            "phone": "4159326531",
            "website_url": "http://almanacbeer.com",
            "updated_at": "2018-08-23T23:24:11.758Z",
            "created_at": "2018-08-23T23:24:11.758Z"
        },
        {
            "id": 299911,
            "name": "Almanac Beer Company",
            "listing_by_Agent": true,
            "status":"For Sale",
            "brewery_type": "micro",
            "no_bedroom":"4",
            "no_bathroom":"4",
            "no_sqft":"12800",
            "street": "651B W Tower Ave",
            "address_2": null,
            "address_3": null,
            "city": "New Haven",
            "state": "Enugu",
            "county_province": null,
            "postal_code": "94501-5047",
            "country": "Nigeria",
            "longitude": "-122.306283180899",
            "latitude": "37.7834497667258",
            "phone": "4159326531",
            "website_url": "http://almanacbeer.com",
            "updated_at": "2018-08-23T23:24:11.758Z",
            "created_at": "2018-08-23T23:24:11.758Z"
        },
        {
            "id":918081,
            "obdb_id":"boulder-beer-co-boulder",
            "listing_by_Agent": true,
            "status":"For Sale",
            "name":"Boulder Beer Co",
            "brewery_type":"regional",
            "no_bedroom":"3",
            "no_bathroom":"3",
            "no_sqft":"41000",
            "street":"2880 Wilderness Pl",
            "address_2":null,
            "address_3":null,
            "city":"Akwa",
            "state":"Anambra",
            "county_province":null,
            "postal_code":"80301-5401",
            "country":"Nigeria",
            "longitude":"-105.2480158",
            "latitude":"40.026439",
            "phone":null,
            "website_url":null,
            "updated_at":"2018-08-24T00:00:00.000Z",
            "created_at":"2018-07-24T00:00:00.000Z"
        },
        {
            "id":975454,            
            "status":"For Sale",
            "listing_by_Agent": true,
            "obdb_id":"clermont-brewing-company-clermont",
            "name":"Clermont Brewing Company",
            "brewery_type":"planning",
            "no_bedroom":"2",
            "no_bathroom":"3",
            "no_sqft":"1200",
            "street":"Abakpa 82 Division",
            "address_2":null,
            "address_3":null,
            "city":"Abakpa",
            "state":"Enugu",
            "county_province":null,
            "postal_code":"34711-2108",
            "country":"Nigeria",
            "longitude": "-121.306283180899",
            "latitude": "38.7834497667258",
            "phone":null,
            "website_url":null,
            "updated_at":"2018-08-11T00:00:00.000Z",
            "created_at":"2018-07-24T00:00:00.000Z"
            },
        {
            "id":10186,            
            "status":"For Sale",
            "listing_by_Agent": true,
            "obdb_id":"dimensional-brewing-co-dubuque",
            "name":"Dimensional Brewing Co.",
            "brewery_type":"planning",
            "no_bedroom":"5",
            "no_bathroom":"6",
            "no_sqft":"173000",
            "street":"16 Thinker's Corner, Old Abakaliki Road Opposite Omnipotent",
            "address_2":null,
            "address_3":null,
            "city":"Thinker's Corner",
            "state":"Enugu",
            "county_province":null,
            "postal_code":"52001",
            "country":"Nigeria",
            "longitude":"-115.202929",
            "latitude":"42.618516",
            "phone":null,
            "website_url":"http://www.dimensionalbrewing.com","updated_at":"2018-08-11T00:00:00.000Z",
            "created_at":"2018-07-24T00:00:00.000Z"
        },
        {
            "id":1021719,            
            "status":"For Sale",
            "listing_by_Agent": true,
            "obdb_id":"dixie-brewing-co-inc-new-orleans",
            "name":"Dixie Brewing Co Inc.",
            "brewery_type":"contract",
            "no_bedroom":"6",
            "no_bathroom":"4",
            "no_sqft":"11000",
            "street":"6221 S Claiborne Ave Ste 101",
            "address_2":null,
            "address_3":null,
            "city":"Umuahia",
            "state":"Abia",
            "county_province":null,
            "postal_code":"70125-4191",
            "country":"Nigeria",
            "longitude":null,
            "latitude":null,
            "phone":"5048228711",
            "website_url":null,
            "updated_at":"2018-08-11T00:00:00.000Z",
            "created_at":"2018-07-24T00:00:00.000Z"
        },
        {
            "id":11039,
            "listing_by_Agent": true,
            "status":"For Sale",
            "obdb_id":"goose-island-philadelphia-philadelphia",
            "name":"Goose Island Philadelphia",
            "brewery_type":"brewpub",
            "no_bedroom":"2",
            "no_bathroom":"3",
            "no_sqft":"4100",
            "street":"1002 Canal St",
            "address_2":null,
            "address_3":null,
            "city":"Abakiliki",
            "state":"Ebonyi",
            "county_province":null,
            "postal_code":"19123",
            "country":"Nigeria",
            "longitude":"-75.13506341",
            "latitude":"39.9648491",
            "phone":null,
            "website_url":null,
            "updated_at":"2018-08-24T00:00:00.000Z",
            "created_at":"2018-07-24T00:00:00.000Z"
        },
        {
            "id":1176769,
            "listing_by_Agent": true,
            "status":"For Sale",
            "obdb_id":"ironbark-brewery-jackson",
            "name":"Ironbark Brewery",
            "brewery_type":"micro",
            "no_bedroom":"7",
            "no_bathroom":"6",
            "no_sqft":"141000",
            "street":"2610 Kibby Rd",
            "address_2":null,
            "address_3":null,
            "city":"Afikpo North",
            "state":"Ebonyi",
            "county_province":null,
            "postal_code":"49203-4908",
            "country":"Nigeria",
            "longitude":"-84.43762976",
            "latitude":"42.2188971",
            "phone":"5177487988",
            "website_url":null,
            "updated_at":"2018-08-24T00:00:00.000Z",
            "created_at":"2018-07-24T00:00:00.000Z"
        },
        {
            "id":8034,            
            "status":"For Sale",
            "listing_by_Agent": true,
            "obdb_id":"10-56-brewing-company-knox",
            "name":"10-56 Brewing Company",
            "brewery_type":"micro",
            "no_bedroom":"4",
            "no_bathroom":"4",
            "no_sqft":"4000",
            "street":"400 Brown Cir",
            "address_2":null,
            "address_3":null,
            "city":"Owerre",
            "state":"Imo",
            "county_province":null,
            "postal_code":"46534",
            "country":"Nigeria",
            "longitude":"-86.627954",
            "latitude":"41.289715",
            "phone":"6308165790",
            "website_url":null,
            "updated_at":"2018-08-24T00:00:00.000Z",
            "created_at":"2018-07-24T00:00:00.000Z"
        },
        {
            "id":8037002,            
            "status":"For Sale",
            "listing_by_Agent": true,
            "obdb_id":"10-barrel-brewing-co-bend-pub-bend",
            "name":"10 Barrel Brewing Co - Bend Pub",
            "brewery_type":"large",
            "no_bedroom":"3",
            "no_bathroom":"3",
            "no_sqft":"4100",
            "street":"62950 NE 18th St",
            "address_2":null,
            "address_3":null,
            "city":"Aba",
            "state":"Abia",
            "county_province":null,
            "postal_code":"97701",
            "country":"Nigeria",
            "longitude":"-121.2809536",
            "latitude":"44.0912109",
            "phone":"5415851007",
            "website_url":null,
            "updated_at":"2018-08-24T00:00:00.000Z",
            "created_at":"2018-07-24T00:00:00.000Z"
        },
        {
            "id":1434713,            
            "status":"For Sale",
            "listing_by_Agent": false,
            "obdb_id":"ska-brewing-durango",
            "name":"SKA Brewing",
            "brewery_type":"regional",
            "no_bedroom":"3",
            "no_bathroom":"4",
            "no_sqft":"1200",
            "street":"225 Girard, Bodo Park",
            "address_2":null,
            "address_3":null,
            "city":"Akwa",
            "state":"Anambra",
            "county_province":null,
            "postal_code":"81303-6827",
            "country":"Nigeria",
            "longitude":null,
            "latitude":null,
            "phone":null,
            "website_url":null,
            "updated_at":"2018-08-11T00:00:00.000Z",
            "created_at":"2018-07-24T00:00:00.000Z"
        },
        {
            "id":803802,            
            "status":"For Sale",
            "listing_by_Agent": false,
            "obdb_id":"10-barrel-brewing-co-boise-boise",
            "name":"10 Barrel Brewing Co - Boise",
            "brewery_type":"large",
            "no_bedroom":"4",
            "no_bathroom":"5",
            "no_sqft":"21000",
            "street":"826 W Bannock St",
            "address_2":null,
            "address_3":null,
            "city":"Nsukka",
            "state":"Enugu",
            "county_province":null,
            "postal_code":"83702-5857",
            "country":"Nigeria",
            "longitude":"-116.202929",
            "latitude":"43.618516",
            "phone":"2083445870",
            "website_url":"http://www.10barrel.com",
            "updated_at":"2020-10-11T00:00:00.000Z",
            "created_at":"2018-07-24T00:00:00.000Z"
        },
        {
            "id":80392,            
            "status":"For Sale",
            "listing_by_Agent": false,
            "obdb_id":"10-barrel-brewing-co-denver-denver",
            "name":"10 Barrel Brewing Co - Denver",
            "brewery_type":"large",
            "no_bedroom":"3",
            "no_bathroom":"3",
            "no_sqft":"12000",
            "street":"2620 Walnut St",
            "address_2":null,
            "address_3":null,
            "city":"Akwa South",
            "state":"Anambra",
            "county_province":null,
            "postal_code":"80205-2231",
            "country":"Nigeria",
            "longitude":"-104.9853655",
            "latitude":"39.7592508",
            "phone":"7205738992",
            "website_url":null,
            "updated_at":"2018-08-24T00:00:00.000Z",
            "created_at":"2018-07-24T00:00:00.000Z"
        },
        {
            "id":804001,            
            "status":"For Sale",
            "listing_by_Agent": false,
            "obdb_id":"10-barrel-brewing-co-portland",
            "name":"10 Barrel Brewing Co",
            "brewery_type":"large",
            "no_bedroom":"3",
            "no_bathroom":"3",
            "no_sqft":"4400",
            "street":"1411 NW Flanders St",
            "address_2":null,
            "address_3":null,
            "city":"Umuahia",
            "state":"Abia",
            "county_province":null,
            "postal_code":"97209-2620",
            "country":"Nigeria",
            "longitude":"-122.6855056",
            "latitude":"45.5259786",
            "phone":"5032241700",
            "website_url":"http://www.10barrel.com",
            "updated_at":"2018-08-24T00:00:00.000Z",
            "created_at":"2018-07-24T00:00:00.000Z"
        },
        {
            "id":804199,            
            "status":"For Sale",
            "listing_by_Agent": false,
            "obdb_id":"10-barrel-brewing-co-san-diego",
            "name":"10 Barrel Brewing Co",
            "brewery_type":"large",
            "no_bedroom":"3",
            "no_bathroom":"3",
            "no_sqft":"4100",
            "street":"1501 E St",
            "address_2":null,
            "address_3":null,
            "city":"Owerre",
            "state":"Imo",
            "county_province":null,
            "postal_code":"92101-6618",
            "country":"Nigeria",
            "longitude":"-117.129593",
            "latitude":"32.714813",
            "phone":"6195782311",
            "website_url":"http://10barrel.com",
            "updated_at":"2018-08-23T00:00:00.000Z",
            "created_at":"2018-07-24T00:00:00.000Z"
        },
        {
            "id":804457,            
            "status":"For Sale",
            "listing_by_Agent": false,
            "obdb_id":"10-torr-distilling-and-brewing-reno",
            "name":"10 Torr Distilling and Brewing",
            "brewery_type":"micro",
            "no_bedroom":"5",
            "no_bathroom":"6",
            "no_sqft":"12300",
            "street":"490 Mill St",
            "address_2":null,
            "address_3":null,
            "city":"Reno",
            "state":"Imo",
            "county_province":null,
            "postal_code":"89502",
            "country":"Nigeria",
            "longitude":"-119.7732015",
            "latitude":"39.5171702",
            "phone":"7755307014",
            "website_url":"http://www.10torr.com",
            "updated_at":"2018-08-24T00:00:00.000Z",
            "created_at":"2018-07-24T00:00:00.000Z"
        },
        {
            "id":8043000,            
            "status":"For Sale",
            "listing_by_Agent": false,
            "obdb_id":"10-torr-distilling-and-brewing-reno",
            "name":"10 Torr Distilling and Brewing",
            "brewery_type":"micro",
            "no_bedroom":"2",
            "no_bathroom":"1",
            "no_sqft":"900",
            "street":"490 Mill St",
            "address_2":null,
            "address_3":null,
            "city":"Reno",
            "state":"Imo",
            "county_province":null,
            "postal_code":"89502",
            "country":"Nigeria",
            "longitude":"-119.7732015",
            "latitude":"39.5171702",
            "phone":"7755307014",
            "website_url":"http://www.10torr.com",
            "updated_at":"2018-08-24T00:00:00.000Z",
            "created_at":"2018-07-24T00:00:00.000Z"
        },
        {
            "id":8046750,            
            "status":"For Sale",
            "listing_by_Agent": false,
            "obdb_id":"10-torr-distilling-and-brewing-reno",
            "name":"10 Torr Distilling and Brewing",
            "brewery_type":"micro",
            "no_bedroom":"2",
            "no_bathroom":"1",
            "no_sqft":"1900",
            "street":"590 Mill St",
            "address_2":null,
            "address_3":null,
            "city":"Independance Layout",
            "state":"Enugu",
            "county_province":null,
            "postal_code":"89502",
            "country":"Nigeria",
            "longitude":"-119.7732015",
            "latitude":"39.5171702",
            "phone":"7755307014",
            "website_url":"http://www.10torr.com",
            "updated_at":"2018-08-24T00:00:00.000Z",
            "created_at":"2018-07-24T00:00:00.000Z"
        },
        {
            "id": 299210,
            "status":"For Sale",
            "listing_by_Agent": false,
            "name": "Almanac Beer Company",
            "brewery_type": "micro",
            "no_bedroom":"4",
            "no_bathroom":"4",
            "no_sqft":"12800",
            "street": "651B W Tower Ave",
            "address_2": null,
            "address_3": null,
            "city": "New Haven",
            "state": "Enugu",
            "county_province": null,
            "postal_code": "94501-5047",
            "country": "Nigeria",
            "longitude": "-123.306283180899",
            "latitude": "36.7834497667258",
            "phone": "4159326531",
            "website_url": "http://almanacbeer.com",
            "updated_at": "2018-08-23T23:24:11.758Z",
            "created_at": "2018-08-23T23:24:11.758Z"
        }
    ]

}